{"type":"FeatureCollection","features":[{"type":"Feature","geometry":{"type":"Point","coordinates":[-68.7662,-11.0337]},"properties":{"symbol":"bigcity","color":"#a5e62b","institucion":"Fiscalía Especializada en Atención a Victimas de Atención Prioritaria","departamento":"Pando","municipio":"Cobija","direccion":"Avenida 9 de Febrero No. 211","telefono1":"3-8424014","horario":"","paginaweb":""}},{"type":"Feature","geometry":{"type":"Point","coordinates":[-64.90801,-14.83625]},"properties":{"symbol":"bigcity","color":"#a5e62b","institucion":"Fiscalía Especializada en Atención a Victimas de Atención Prioritaria","departamento":"Beni","municipio":"Trinidad","direccion":"Calle La Paz No. 131","telefono1":"3-4621444","horario":"","paginaweb":""}},{"type":"Feature","geometry":{"type":"Point","coordinates":[-67.56767,-15.83674]},"properties":{"symbol":"bigcity","color":"#a5e62b","institucion":"Fiscalía Especializada en Atención a Victimas de Atención Prioritaria","departamento":"La Paz","municipio":"La Paz","direccion":"Calle Potosí No. 2","telefono1":"2-2406100","horario":"","paginaweb":""}},{"type":"Feature","geometry":{"type":"Point","coordinates":[-66.15449,-17.39495]},"properties":{"symbol":"bigcity","color":"#a5e62b","institucion":"Fiscalía Especializada en Atención a Victimas de Atención Prioritaria","departamento":"Cochabamba","municipio":"Cochabamba","direccion":"Calle Jordán No. 224","telefono1":"4-4504626","horario":"","paginaweb":""}},{"type":"Feature","geometry":{"type":"Point","coordinates":[-63.18237,-17.77065]},"properties":{"symbol":"bigcity","color":"#a5e62b","institucion":"Fiscalía Especializada en Atención a Victimas de Atención Prioritaria","departamento":"Santa Cruz","municipio":"Santa Cruz de la Sierra","direccion":"Avenida Monseñor Rivero y. 2do. Anillo No. 55 (ex Banco BIDESA)","telefono1":"3-3346865","horario":"","paginaweb":""}},{"type":"Feature","geometry":{"type":"Point","coordinates":[-67.11514,-17.96801]},"properties":{"symbol":"bigcity","color":"#a5e62b","institucion":"Fiscalía Especializada en Atención a Victimas de Atención Prioritaria","departamento":"Oruro","municipio":"Oruro","direccion":"Calle Junín No. 46","telefono1":"2-5250034","horario":"","paginaweb":""}},{"type":"Feature","geometry":{"type":"Point","coordinates":[-65.26302,-19.04333]},"properties":{"symbol":"bigcity","color":"#a5e62b","institucion":"Fiscalía Especializada en Atención a Victimas de Atención Prioritaria","departamento":"Chuquisaca","municipio":"Sucre","direccion":"Calle Kilometro 7 No. 282","telefono1":"4-6453640","horario":"","paginaweb":""}},{"type":"Feature","geometry":{"type":"Point","coordinates":[-66.82269,-20.45369]},"properties":{"symbol":"bigcity","color":"#a5e62b","institucion":"Fiscalía Especializada en Atención a Victimas de Atención Prioritaria","departamento":"Potosí","municipio":"Potosí","direccion":"Calle Junín No. 2","telefono1":"2-6223878","horario":"","paginaweb":""}},{"type":"Feature","geometry":{"type":"Point","coordinates":[-64.7348,-21.53392]},"properties":{"symbol":"bigcity","color":"#a5e62b","institucion":"Fiscalía Especializada en Atención a Victimas de Atención Prioritaria","departamento":"Tarija","municipio":"Tarija","direccion":"Calle General Trigo No. 820 (Edificio Gonzales)","telefono1":"4-6642649","horario":"","paginaweb":""}}]}
