{"type":"FeatureCollection","features":[{"type":"Feature","geometry":{"type":"Point","coordinates":[-68.7598,-11.02201]},"properties":{"symbol":"court_1","color":"#f26480","institucion":"Distrito Judicial","departamento":"Pando","municipio":"Cobija","direccion":"Avenida 16 de Julio No. 152 y Calle Miguel Becerra","telefono1":"3-8422330"}},{"type":"Feature","geometry":{"type":"Point","coordinates":[-64.90355,-14.83543]},"properties":{"symbol":"court_1","color":"#f26480","institucion":"Distrito Judicial","departamento":"Beni","municipio":"Trinidad","direccion":"Avenida Germán Busch y Calle Joaquín Sierra","telefono1":"3-4620838"}},{"type":"Feature","geometry":{"type":"Point","coordinates":[-68.13372,-16.4937]},"properties":{"symbol":"court_1","color":"#f26480","institucion":"Distrito Judicial","departamento":"La Paz","municipio":"La Paz","direccion":"Calle Yanacocha No. 721 entre Calle Indaburo y Calle Sucre","telefono1":"2-2124657, 2-2124670"}},{"type":"Feature","geometry":{"type":"Point","coordinates":[-66.15373,-17.3948]},"properties":{"symbol":"court_1","color":"#f26480","institucion":"Distrito Judicial","departamento":"Cochabamba","municipio":"Cochabamba","direccion":"Avenida San Martín y Calle Jordán","telefono1":"4-4013017"}},{"type":"Feature","geometry":{"type":"Point","coordinates":[-63.18142,-17.77413]},"properties":{"symbol":"court_1","color":"#f26480","institucion":"Distrito Judicial","departamento":"Santa Cruz","municipio":"Santa Cruz de la Sierra","direccion":"Calle Uruguay y Calle Monseñor Rivero (Edificio Palacio de Justicia)","telefono1":"3-3365454"}},{"type":"Feature","geometry":{"type":"Point","coordinates":[-67.11349,-17.96765]},"properties":{"symbol":"court_1","color":"#f26480","institucion":"Distrito Judicial","departamento":"Oruro","municipio":"Oruro","direccion":"Calle La Plata y Calle Ayacucho","telefono1":"2-5252287"}},{"type":"Feature","geometry":{"type":"Point","coordinates":[-65.2627,-19.0433]},"properties":{"symbol":"court_1","color":"#f26480","institucion":"Distrito Judicial","departamento":"Chuquisaca","municipio":"Sucre","direccion":"Avenida Venezuela y Calle Ladislao Cabrera","telefono1":"4-6454400"}},{"type":"Feature","geometry":{"type":"Point","coordinates":[-65.75913,-19.58099]},"properties":{"symbol":"court_1","color":"#f26480","institucion":"Distrito Judicial","departamento":"Potosí","municipio":"Potosí","direccion":"Avenida Sevilla y Avenida Villazón","telefono1":"2-6223700, 2-6223224"}},{"type":"Feature","geometry":{"type":"Point","coordinates":[-64.73204,-21.53295]},"properties":{"symbol":"court_1","color":"#f26480","institucion":"Distrito Judicial","departamento":"Tarija","municipio":"Tarija","direccion":"Calle Bolivar y Calle Ingavi (Plaza Luis Campero)","telefono1":"4-6631509"}}]}
